{"restone": [
	              {
	 	   			  "branch_id":"001",
					  "name":"Marina Mall",
					  "longitude":-0.176198,
					  "latitude":  5.602827,
					  "phone":"233576423284",
					  "person": "Kweku John"
					
				
					},
                    {
	 	   			  "branch_id":"002",
					  "name":"East Legon",
						"latitude":5.639345,
					  "longitude": -0.169426,
					  "phone":"233576423284",
					  "person": "Mohammed Abdul"
					},
				    {
	 	   			  "branch_id":"003",
					  "name":"Haatso",
						"latitude":5.667689,
					  "longitude":  -0.188383,
					  "phone":"233576423284",
					  "person": "Nathaniel Ofori"
					},
				    {
	 	   			  "branch_id":"004",
					  "name":"Adenta",
						"latitude":5.705821,
					  "longitude":  -0.170370,
					  "phone":"233576423284",
					  "person": "Sena Opoku"
					},
				    {
	 	   			  "branch_id":"004",
					  "name":"Osu",
						"latitude":5.563076,
					  "longitude":  -0.181396,
					  "phone":"233576423284",
					  "person": "Sena Opoku"
					}				   
],
"resttwo": [
	              {
	 	   			  "branch_id":"001",
					  "name":"Atomic Junction",
						"longitude": -0.177360,
					  "latitude": 5.667820,
					  "phone":"233576423284",
					  "person": "Christian Mawueana"
					},
					{
	 	   			  "branch_id":"002",
					  "name":"Adenta",
						"longitude": -0.171200,
					  "latitude": 5.702838,
					  "phone":"233576423284",
					  "person": "Gideon Tetteh"
					}
],
"restthree": [
	              {
	 	   			  "branch_id":"001",
					  "name":"Osu",
						"longitude": -0.182004,
					  "latitude": 5.559603,
					  "phone":"233576423284",
					  "person": "philip raymond"
					},
				  {
	 	   			  "branch_id":"002",
					  "name":"Spintex",
						"longitude": -0.139413,
					  "latitude": 5.631810,
					  "phone":"233576423284",
					  "person": "philip etian"
					}
],
"restfour": [
	              {
	 	   			  "branch_id":"001",
					  "name":"Airport City",
						"longitude": -0.176362,
					  "latitude":5.600537,
					  "phone":"233576423284",
					  "person": "philip captain"
					}
],
"restfive": [
	              {
	 	   			  "branch_id":"001",
					  "name":"Marina Mall",
						"longitude":-0.176198,
					  "latitude": 5.602827,
					  "phone":"233576423284",
					  "person": "boy dollars"
					},
					{
	 	   			  "branch_id":"001",
					  "name":"Spintex",
						"longitude":-0.139782,
					  "latitude": 5.632524,
					  "phone":"233576423284",
					  "person": "boy dollars"
					}
],
"restsix": [
	              {
	 	   			  "branch_id":"001",
					  "name":"Accra Mall",
						"longitude":-0.173616,
					  "latitude": 5.622480,
					  "phone":"233576423284",
					  "person": "trade dollars"
	              },
	              {
	 	   			  "branch_id":"001",
					  "name":"East Legon",
						"longitude":-0.147052,
					  "latitude": 5.642844,
					  "phone":"233576423284",
					  "person": "trade dollars"
	              }
],
"restseven": [
	              {
	 	   			  "branch_id":"001",
					  "name":"East Legon",
						"longitude":-0.158414,
					  "latitude": 5.643481,
					  "phone":"233576423284",
					  "person": "philip bubbb"
					},
					{
	 	   			  "branch_id":"001",
					  "name":"Osu",
						"longitude":-0.185531,
					  "latitude": 5.569035,
					  "phone":"233576423284",
					  "person": "philip bubbb"
					},
					{
	 	   			  "branch_id":"001",
					  "name":"Spintex",
						"longitude":-0.090230,
					  "latitude": 5.630541,
					  "phone":"233576423284",
					  "person": "philip bubbb"
					}
],
"resteight": [
	              {
	 	   			  "branch_id":"001",
					  "name":"East Legon",
						"longitude":-0.165371,
					  "latitude": 5.640322,
					  "phone":"233576423284",
					  "person": "philip bob"
					},
					{
	 	   			  "branch_id":"001",
					  "name":"Ring Road",
						"longitude":-0.206702,
					  "latitude": 5.571569,
					  "phone":"233576423284",
					  "person": "philip bob"
					}
					
]
,
"restnine": [
	              {
	 	   			  "branch_id":"001",
					  "name":"East Legon",
						"longitude":-0.156680,
					  "latitude": 5.645300,
					  "phone":"233576423284",
					  "person": "philip bob"
					}
					
]
,
"restten": [
	              {
	 	   			  "branch_id":"001",
					  "name":"East Legon",
						"longitude":-0.149293,
					  "latitude": 5.633542,
					  "phone":"233576423284",
					  "person": "philip bob"
					}
					
]
,
"resteleven": [
	              {
	 	   			  "branch_id":"001",
					  "name":"Accra Mall",
						"longitude":-0.173515,
					  "latitude": 5.621826,
					  "phone":"233576423284",
					  "person": "philip bob"
					}
					
]
,
"resttwelve": [
	              {
	 	   			  "branch_id":"001",
					  "name":"Cantonments",
						"longitude":-0.175690,
					  "latitude": 5.579702,
					  "phone":"233576423284",
					  "person": "philip bob"
					},
					{
	 	   			  "branch_id":"001",
					  "name":"East Legon",
						"longitude":-0.156070,
					  "latitude": 5.645300,
					  "phone":"233576423284",
					  "person": "philip bob"
					}
					
]
,
"restthirteen": [
	              {
	 	   			  "branch_id":"001",
					  "name":"East Legon",
						"longitude":-0.172254,
					  "latitude": 5.633722,
					  "phone":"233576423284",
					  "person": "philip bob"
					}
					
]
,
"restfourteen": [
	              {
	 	   			  "branch_id":"001",
					  "name":"Spintex",
						"longitude":-0.141349,
					  "latitude": 5.631021,
					  "phone":"233576423284",
					  "person": "philip bob"
					}
					
]
,
"restfifteen": [
	              {
	 	   			  "branch_id":"001",
					  "name":"Airport City",
						"longitude":-0.175316,
					  "latitude": 5.604383,
					  "phone":"233576423284",
					  "person": "philip bob"
					},
					{
	 	   			  "branch_id":"001",
					  "name":"Accra Mall",
						"longitude":-0.173224,
					  "latitude": 5.622265,
					  "phone":"233576423284",
					  "person": "philip bob"
					}
					
]
,
"restsixteen": [
	              {
	 	   			  "branch_id":"001",
					  "name":"Aiport City",
						"longitude":-0.175234,
					  "latitude": 5.604456,
					  "phone":"233576423284",
					  "person": "philip bob"
					},
					{
	 	   			  "branch_id":"001",
					  "name":"Aiport City (One Airport Square)",
						"longitude":-0.177054,
					  "latitude": 5.600588,
					  "phone":"233576423284",
					  "person": "philip bob"
					}
					
]
,
"restseventeen": [
	              {
	 	   			  "branch_id":"001",
					  "name":"Airport City",
						"longitude":-0.175270,
					  "latitude": 5.604378,
					  "phone":"233576423284",
					  "person": "philip bob"
					}
					
]
,
"resteighteen": [
	              {
	 	   			  "branch_id":"001",
					  "name":"East Legon",
						"longitude":0.1111,
					  "latitude": 2.4464,
					  "phone":"233576423284",
					  "person": "philip bob"
					}
					
]
,
"restnineteen": [
	              {
	 	   			  "branch_id":"001",
					  "name":"East Legon",
						"longitude":0.1111,
					  "latitude": 2.4464,
					  "phone":"233576423284",
					  "person": "philip bob"
					}
					
]
,
"resttwenty": [
	              {
	 	   			  "branch_id":"001",
					  "name":"East Legon",
						"longitude":0.1111,
					  "latitude": 2.4464,
					  "phone":"233576423284",
					  "person": "philip bob"
					}
					
]

}